[
  {
    "lat": 20.28017,
    "lon": 48.2192,
    "shopType": "Patika",
    "branchName": "BENU Gyógyszertár Ózd Páduai Szent Antal"
  },
  {
    "lat": 19.03746,
    "lon": 47.34072,
    "shopType": "Patika",
    "branchName": "BENU Gyógyszertár Szigetszentmiklós"
  },
  {
    "lat": 21.75773,
    "lon": 47.60063,
    "shopType": "Patika",
    "branchName": "BENU Hárs Patika"
  },
  {
    "lat": 19.1352,
    "lon": 47.53925,
    "shopType": "Patika",
    "branchName": "BENU Gyógyszertár Budapest Nyírpalota"
  },
  {
    "lat": 19.06107,
    "lon": 47.51842,
    "shopType": "Patika",
    "branchName": "BENU Gyógyszertár Budapest Lehel"
  },
  {
    "lat": 19.83218,
    "lon": 48.00812,
    "shopType": "Patika",
    "branchName": "BENU Kastélykert Gyógyszertár"
  },
  {
    "lat": 17.62398,
    "lon": 47.68762,
    "shopType": "Patika",
    "branchName": "BENU Gyógyszertár Kabay János"
  },
  {
    "lat": 19.06894,
    "lon": 47.53673,
    "shopType": "Patika",
    "branchName": "BENU Gyógyszertár Budapest Valeriana"
  },
  {
    "lat": 19.82984,
    "lon": 47.98519,
    "shopType": "Patika",
    "branchName": "BENU Gyógyszertár Bátonyterenye Elixir"
  },
  {
    "lat": 22.3242,
    "lon": 47.95551,
    "shopType": "Patika",
    "branchName": "BENU Sas Gyógyszertár"
  },
  {
    "lat": 16.98912,
    "lon": 46.45683,
    "shopType": "Patika",
    "branchName": "BENU Gyógyszertár Nagykanizsa Aranyszarvas"
  },
  {
    "lat": 19.03337,
    "lon": 47.46394,
    "shopType": "Patika",
    "branchName": "BENU Gyógyszertár Budapest Mályva"
  },
  {
    "lat": 19.04857,
    "lon": 47.47759,
    "shopType": "Patika",
    "branchName": "BENU Gyógyszertár Budapest Szent Imre"
  },
  {
    "lat": 19.05155,
    "lon": 47.59824,
    "shopType": "Patika",
    "branchName": "BENU Gyógyszertár Budapest Auróra"
  },
  {
    "lat": 17.26686,
    "lon": 46.77366,
    "shopType": "Patika",
    "branchName": "BENU Gyógyszertár Keszthely Interspar"
  },
  {
    "lat": 20.19187,
    "lon": 47.17749,
    "shopType": "Patika",
    "branchName": "BENU Gyógyszertár Szolnok Pláza"
  },
  {
    "lat": 16.83174,
    "lon": 46.84073,
    "shopType": "Patika",
    "branchName": "BENU Gyógyszertár Zalaegerszeg Platán"
  },
  {
    "lat": 19.51655,
    "lon": 48.0814,
    "shopType": "Patika",
    "branchName": "BENU Gyógyszertár Szécsény Szent Jób"
  },
  {
    "lat": 18.90895,
    "lon": 47.31791,
    "shopType": "Patika",
    "branchName": "BENU Gyógyszertár Százhalombatta Lakótelep"
  },
  {
    "lat": 19.12548,
    "lon": 47.64243,
    "shopType": "Patika",
    "branchName": "BENU Gyógyszertár Dunakeszi Rézkígyó"
  },
  {
    "lat": 19.09976,
    "lon": 47.43588,
    "shopType": "Patika",
    "branchName": "BENU Gyógyszertár Budapest Aranyfû"
  },
  {
    "lat": 18.02866,
    "lon": 47.50239,
    "shopType": "Patika",
    "branchName": "BENU Kisbéri Ezüstkehely Gyógyszertár"
  },
  {
    "lat": 20.7851,
    "lon": 48.10289,
    "shopType": "Patika",
    "branchName": "BENU Kígyó Gyógyszertár"
  },
  {
    "lat": 21.71579,
    "lon": 47.95644,
    "shopType": "Patika",
    "branchName": "BENU Gyógyszertár Nyíregyháza Hõsök tere"
  },
  {
    "lat": 19.13724,
    "lon": 47.50421,
    "shopType": "Patika",
    "branchName": "BENU Gyógyszertár Budapest Sugár"
  },
  {
    "lat": 19.04863,
    "lon": 47.49849,
    "shopType": "Patika",
    "branchName": "BENU Dorottya Gyógyszertár"
  },
  {
    "lat": 21.62829,
    "lon": 47.53292,
    "shopType": "Patika",
    "branchName": "BENU Fórum Gyógyszertár"
  },
  {
    "lat": 17.12346,
    "lon": 46.56101,
    "shopType": "Patika",
    "branchName": "BENU Termál Gyógyszertár"
  },
  {
    "lat": 19.18176,
    "lon": 47.44375,
    "shopType": "Patika",
    "branchName": "BENU Gyógyszertár Budapest Thököly"
  },
  {
    "lat": 16.83312,
    "lon": 46.84689,
    "shopType": "Patika",
    "branchName": "BENU Gyógyszertár Zalaegerszeg Interspar"
  },
  {
    "lat": 19.47431,
    "lon": 47.65204,
    "shopType": "Patika",
    "branchName": "BENU Gyógyszertár Aszód Városi"
  },
  {
    "lat": 21.6355,
    "lon": 47.4402,
    "shopType": "Patika",
    "branchName": "BENU Gyógyszertár Mikepércs"
  },
  {
    "lat": 19.05241,
    "lon": 47.50592,
    "shopType": "Patika",
    "branchName": "BENU Gyógyszertár Budapest Panacea"
  },
  {
    "lat": 17.63839,
    "lon": 47.6883,
    "shopType": "Patika",
    "branchName": "BENU Gyógyszertár Kígyó"
  },
  {
    "lat": 17.31674,
    "lon": 46.75773,
    "shopType": "Patika",
    "branchName": "BENU Gyógyszertár Keszthely Interspar Vonyarcvashegy fiókgyógyszertár"
  },
  {
    "lat": 17.66047,
    "lon": 47.6928,
    "shopType": "Patika",
    "branchName": "BENU Cédrus Gyógyszertár"
  },
  {
    "lat": 17.63256,
    "lon": 47.68751,
    "shopType": "Patika",
    "branchName": "BENU Városi Gyógyszertár"
  },
  {
    "lat": 16.58624,
    "lon": 46.84645,
    "shopType": "Patika",
    "branchName": "BENU Gyógyszertár Zalalövõ Borostyánkõ"
  },
  {
    "lat": 16.62919,
    "lon": 47.23211,
    "shopType": "Patika",
    "branchName": "BENU Szent Márton Gyógyszertár"
  },
  {
    "lat": 16.60557,
    "lon": 47.23869,
    "shopType": "Patika",
    "branchName": "BENU Fagyöngy Gyógyszertár"
  },
  {
    "lat": 17.92729,
    "lon": 47.09289,
    "shopType": "Patika",
    "branchName": "BENU Gyógyszertár Veszprém Cholnoky"
  },
  {
    "lat": 16.58777,
    "lon": 47.67839,
    "shopType": "Patika",
    "branchName": "BENU Gyógyszertár Sopron Állomás"
  },
  {
    "lat": 17.15176,
    "lon": 47.25809,
    "shopType": "Patika",
    "branchName": "BENU Gyógyszertár Celldömölk Csontváry"
  },
  {
    "lat": 19.05716,
    "lon": 47.49689,
    "shopType": "Patika",
    "branchName": "BENU Gyógyszertár Budapest Madách tér"
  },
  {
    "lat": 19.08403,
    "lon": 47.47002,
    "shopType": "Patika",
    "branchName": "BENU Lurdy-Korona Gyógyszertár"
  },
  {
    "lat": 19.78711,
    "lon": 47.17565,
    "shopType": "Patika",
    "branchName": "BENU Felszegi Gyógyszertár"
  },
  {
    "lat": 19.80748,
    "lon": 48.10561,
    "shopType": "Patika",
    "branchName": "BENU Gyógyszertár Salgótarján Kamilla"
  },
  {
    "lat": 20.77809,
    "lon": 48.07964,
    "shopType": "Patika",
    "branchName": "BENU Gyógyszertár Miskolc Csontváry"
  },
  {
    "lat": 16.62053,
    "lon": 47.25289,
    "shopType": "Patika",
    "branchName": "BENU Gyógyszertár Szombathely Stromfeld"
  },
  {
    "lat": 17.63506,
    "lon": 47.68505,
    "shopType": "Patika",
    "branchName": "BENU Gyógyszertár"
  },
  {
    "lat": 17.6466,
    "lon": 47.66908,
    "shopType": "Patika",
    "branchName": "BENU Gyógyszertár Györ Pláza"
  },
  {
    "lat": 22.31371,
    "lon": 48.12805,
    "shopType": "Patika",
    "branchName": "BENU Remény Gyógyszertár"
  },
  {
    "lat": 20.75813,
    "lon": 47.61695,
    "shopType": "Patika",
    "branchName": "BENU Gyógyszertár Tiszafüred Reménység"
  },
  {
    "lat": 19.92397,
    "lon": 47.77108,
    "shopType": "Patika",
    "branchName": "BENU Gyógyszertár Gyöngyös Mixtura"
  },
  {
    "lat": 16.84878,
    "lon": 46.84328,
    "shopType": "Patika",
    "branchName": "BENU Gyógyszertár Zalaegerszeg Kígyó"
  },
  {
    "lat": 18.2279,
    "lon": 46.07361,
    "shopType": "Patika",
    "branchName": "BENU Gyógyszertár Pécs Arany Kehely"
  },
  {
    "lat": 21.62568,
    "lon": 47.53481,
    "shopType": "Patika",
    "branchName": "BENU Gyógyszertár Debrecen Pláza"
  },
  {
    "lat": 19.10761,
    "lon": 47.50099,
    "shopType": "Patika",
    "branchName": "BENU Gyógyszertár Budapest Sportaréna"
  },
  {
    "lat": 19.07108,
    "lon": 47.49709,
    "shopType": "Patika",
    "branchName": "BENU Gyógyszertár Budapest Csillag"
  },
  {
    "lat": 19.13238,
    "lon": 47.78172,
    "shopType": "Patika",
    "branchName": "BENU Fekete Kígyó Gyógyszertár"
  },
  {
    "lat": 22.32416,
    "lon": 47.95464,
    "shopType": "Patika",
    "branchName": "BENU Fecske Patika"
  },
  {
    "lat": 16.84555,
    "lon": 46.83993,
    "shopType": "Patika",
    "branchName": "BENU Gyógyszertár Zalaegerszeg Kabay"
  },
  {
    "lat": 19.04601,
    "lon": 47.47754,
    "shopType": "Patika",
    "branchName": "BENU Budai Szent Klára Gyógyszertár"
  },
  {
    "lat": 19.04967,
    "lon": 47.58104,
    "shopType": "Patika",
    "branchName": "BENU Nadály Gyógyszertár"
  },
  {
    "lat": 20.63136,
    "lon": 47.37141,
    "shopType": "Patika",
    "branchName": "BENU Magyar Korona Gyógyszertár"
  },
  {
    "lat": 17.24272,
    "lon": 46.76519,
    "shopType": "Patika",
    "branchName": "BENU Gyógyszertár Keszthely Helikon"
  },
  {
    "lat": 22.0638,
    "lon": 48.23331,
    "shopType": "Patika",
    "branchName": "BENU Gyógyszertár Kisvárda Városmajor"
  },
  {
    "lat": 18.85293,
    "lon": 46.6194,
    "shopType": "Patika",
    "branchName": "BENU Gyógyszertár Paks Tesco"
  },
  {
    "lat": 19.13034,
    "lon": 47.48472,
    "shopType": "Patika",
    "branchName": "BENU Gyógyszertár Budapest Bellis"
  },
  {
    "lat": 17.00426,
    "lon": 46.45235,
    "shopType": "Patika",
    "branchName": "BENU Gyógyszertár Nagykanizsa Katonaréti"
  },
  {
    "lat": 20.13938,
    "lon": 46.25454,
    "shopType": "Patika",
    "branchName": "BENU Gyógyszertár Szeged Árkád"
  },
  {
    "lat": 19.29712,
    "lon": 48.06781,
    "shopType": "Patika",
    "branchName": "BENU Gyógyszertár Balassagyarmat Remény"
  },
  {
    "lat": 19.15789,
    "lon": 47.41899,
    "shopType": "Patika",
    "branchName": "BENU Gyógyszertár Budapest Soroksár Auchan"
  },
  {
    "lat": 19.10074,
    "lon": 47.56556,
    "shopType": "Patika",
    "branchName": "BENU Gyógyszertár Budapest Rózsa"
  },
  {
    "lat": 19.3348,
    "lon": 47.45911,
    "shopType": "Patika",
    "branchName": "BENU Gyógyszertár Maglód Auchan"
  },
  {
    "lat": 17.07873,
    "lon": 46.94557,
    "shopType": "Patika",
    "branchName": "BENU Gyógyszertár Zalaszentgrót Kristály"
  },
  {
    "lat": 19.54795,
    "lon": 47.28514,
    "shopType": "Patika",
    "branchName": "BENU Family Gyógyszertár"
  },
  {
    "lat": 18.13143,
    "lon": 46.37656,
    "shopType": "Patika",
    "branchName": "BENU Gyógyszertár Dombóvár Pelikán"
  },
  {
    "lat": 18.41411,
    "lon": 47.19109,
    "shopType": "Patika",
    "branchName": "BENU Gyógyszertár Székesfehérvár Országalma"
  },
  {
    "lat": 16.83484,
    "lon": 46.8302,
    "shopType": "Patika",
    "branchName": "BENU Gyógyszertár Zalaegerszeg Kertvárosi"
  },
  {
    "lat": 19.63423,
    "lon": 46.88855,
    "shopType": "Patika",
    "branchName": "BENU Gyógyszertár Kecskemét Auchan"
  },
  {
    "lat": 20.28407,
    "lon": 46.83998,
    "shopType": "Patika",
    "branchName": "BENU Gyógyszertár Kunszentmárton Kossuth"
  },
  {
    "lat": 16.86468,
    "lon": 47.61953,
    "shopType": "Patika",
    "branchName": "BENU Gyógyszertár Fertöd"
  },
  {
    "lat": 21.09682,
    "lon": 46.67704,
    "shopType": "Patika",
    "branchName": "BENU Gyógyszertár Békéscsaba Csaba Center"
  },
  {
    "lat": 18.71086,
    "lon": 46.34342,
    "shopType": "Patika",
    "branchName": "BENU Gyógyszertár Szekszárd Balassa"
  },
  {
    "lat": 16.84636,
    "lon": 46.84517,
    "shopType": "Patika",
    "branchName": "BENU Gyógyszertár Zalaegerszeg Belváros"
  },
  {
    "lat": 19.07707,
    "lon": 47.49297,
    "shopType": "Patika",
    "branchName": "BENU Hajnal Gyógyszertár"
  },
  {
    "lat": 17.16506,
    "lon": 47.12131,
    "shopType": "Patika",
    "branchName": "BENU Gyógyszertár Jánosháza Korona"
  },
  {
    "lat": 18.43472,
    "lon": 47.18949,
    "shopType": "Patika",
    "branchName": "BENU Gyógyszertár Székesfehérvár Szent Lukács"
  },
  {
    "lat": 17.24751,
    "lon": 46.76951,
    "shopType": "Patika",
    "branchName": "BENU Gyógyszertár Keszthely Pelikán"
  },
  {
    "lat": 19.04417,
    "lon": 47.55742,
    "shopType": "Patika",
    "branchName": "BENU Gyógyszertár Budapest Zsálya"
  },
  {
    "lat": 19.03829,
    "lon": 47.42938,
    "shopType": "Patika",
    "branchName": "BENU Gyógyszertár Budapest Szentlélek"
  },
  {
    "lat": 16.87993,
    "lon": 47.58976,
    "shopType": "Patika",
    "branchName": "BENU Gyógyszertár Fertöszentmiklós Elixír"
  },
  {
    "lat": 19.10862,
    "lon": 47.50045,
    "shopType": "Patika",
    "branchName": "BENU Gyógyszertár Budapest Stadion"
  },
  {
    "lat": 19.13963,
    "lon": 47.54564,
    "shopType": "Patika",
    "branchName": "BENU Gyógyszertár Budapest Piac"
  },
  {
    "lat": 19.17211,
    "lon": 47.43423,
    "shopType": "Patika",
    "branchName": "BENU Gyógyszertár Budapest Szent Anna"
  },
  {
    "lat": 16.6324,
    "lon": 47.21673,
    "shopType": "Patika",
    "branchName": "BENU Gyógyszertár Szombathely Interspar"
  },
  {
    "lat": 18.43193,
    "lon": 47.14912,
    "shopType": "Patika",
    "branchName": "BENU Gyógyszertár Székesfehérvár Auchan"
  },
  {
    "lat": 18.9608,
    "lon": 46.83346,
    "shopType": "Patika",
    "branchName": "BENU Szívélyes Gyógyszertár"
  },
  {
    "lat": 19.29299,
    "lon": 48.07798,
    "shopType": "Patika",
    "branchName": "BENU Gyógyszertár Balassagyarmat Winkler"
  },
  {
    "lat": 17.01391,
    "lon": 46.45676,
    "shopType": "Patika",
    "branchName": "BENU Gyógyszertár Nagykanizsa Kanizsa Centrum"
  },
  {
    "lat": 19.07987,
    "lon": 47.52925,
    "shopType": "Patika",
    "branchName": "BENU Gyógyszertár Budapest Béke tér"
  },
  {
    "lat": 21.71496,
    "lon": 48.12856,
    "shopType": "Patika",
    "branchName": "BENU Kristály Gyógyszertár"
  },
  {
    "lat": 19.0548,
    "lon": 47.49138,
    "shopType": "Patika",
    "branchName": "BENU Gyógyszertár Budapest Irányi"
  },
  {
    "lat": 19.04339,
    "lon": 47.46474,
    "shopType": "Patika",
    "branchName": "BENU Budai Aranymérleg Gyógyszertár"
  },
  {
    "lat": 19.13499,
    "lon": 47.92711,
    "shopType": "Patika",
    "branchName": "BENU Gyógyszertár Rétság Kõhárs"
  },
  {
    "lat": 19.8067,
    "lon": 48.1036,
    "shopType": "Patika",
    "branchName": "BENU Gyógyszertár Salgótarján Pécskõ"
  },
  {
    "lat": 16.62407,
    "lon": 47.23121,
    "shopType": "Patika",
    "branchName": "BENU Gyógyszertár Szombathely Kígyó"
  },
  {
    "lat": 20.28477,
    "lon": 48.21221,
    "shopType": "Patika",
    "branchName": "BENU Gyógyszertár Ózd Immánuel"
  },
  {
    "lat": 19.78168,
    "lon": 47.03356,
    "shopType": "Patika",
    "branchName": "BENU Arany Patika Gyógyszertár"
  },
  {
    "lat": 20.98313,
    "lon": 47.96982,
    "shopType": "Patika",
    "branchName": "BENU Dolores Gyógyszertár"
  },
  {
    "lat": 17.73726,
    "lon": 47.69831,
    "shopType": "Patika",
    "branchName": "BENU Kristály Gyógyszertár"
  },
  {
    "lat": 18.16293,
    "lon": 46.38244,
    "shopType": "Patika",
    "branchName": "BENU Gyógyszertár Dombóvár Gólyavár"
  },
  {
    "lat": 19.81284,
    "lon": 48.12845,
    "shopType": "Patika",
    "branchName": "BENU Gyógyszertár Salgótarján Besztercei"
  },
  {
    "lat": 19.24425,
    "lon": 47.54177,
    "shopType": "Patika",
    "branchName": "BENU Gyógyszertár Csömör Auchan"
  },
  {
    "lat": 19.0272,
    "lon": 47.50757,
    "shopType": "Patika",
    "branchName": "BENU Széna tér Patika"
  },
  {
    "lat": 20.00539,
    "lon": 47.1878,
    "shopType": "Patika",
    "branchName": "BENU Gyógyszertár Abony Kabay"
  },
  {
    "lat": 19.18814,
    "lon": 47.40535,
    "shopType": "Patika",
    "branchName": "BENU Gyógyszertár Budapest Szentimrei Diána"
  },
  {
    "lat": 17.79481,
    "lon": 46.35687,
    "shopType": "Patika",
    "branchName": "BENU Gyógyszertár Kaposvár Fõ út"
  },
  {
    "lat": 17.18525,
    "lon": 46.78904,
    "shopType": "Patika",
    "branchName": "BENU Gyógyszertár Hévíz Tavirózsa"
  },
  {
    "lat": 19.81709,
    "lon": 48.01646,
    "shopType": "Patika",
    "branchName": "BENU Szent Benedek Gyógyszertár"
  },
  {
    "lat": 19.93084,
    "lon": 47.78491,
    "shopType": "Patika",
    "branchName": "BENU Erzsébet Gyógyszertár"
  },
  {
    "lat": 19.12073,
    "lon": 47.51433,
    "shopType": "Patika",
    "branchName": "BENU Gyógyszertár Budapest Uranus"
  },
  {
    "lat": 20.83673,
    "lon": 48.10627,
    "shopType": "Patika",
    "branchName": "BENU Gyógyszertár Miskolc Auchan"
  },
  {
    "lat": 21.61043,
    "lon": 47.5483,
    "shopType": "Patika",
    "branchName": "BENU Újkerti Patika"
  },
  {
    "lat": 19.13038,
    "lon": 47.46293,
    "shopType": "Patika",
    "branchName": "BENU Gyógyszertár Budapest Europark"
  },
  {
    "lat": 19.19081,
    "lon": 47.51059,
    "shopType": "Patika",
    "branchName": "BENU Gyógyszertár Budapest Mátyásföld"
  },
  {
    "lat": 16.94205,
    "lon": 47.25021,
    "shopType": "Patika",
    "branchName": "BENU Gyógyszertár Sárvár Szent Antal"
  },
  {
    "lat": 18.90377,
    "lon": 47.61758,
    "shopType": "Patika",
    "branchName": "BENU Gyógyszertár Pilisvörösvár Sikari"
  },
  {
    "lat": 18.42521,
    "lon": 47.20984,
    "shopType": "Patika",
    "branchName": "BENU Gyógyszertár Székesfehérvár Szent Balázs"
  },
  {
    "lat": 19.11053,
    "lon": 47.44176,
    "shopType": "Patika",
    "branchName": "BENU Gyógyszertár Budapest Menta"
  },
  {
    "lat": 19.12903,
    "lon": 47.78252,
    "shopType": "Patika",
    "branchName": "BENU Gyógyszertár Vác Szent Rókus"
  },
  {
    "lat": 19.06183,
    "lon": 47.59593,
    "shopType": "Patika",
    "branchName": "BENU Gyógyszertár Budapest Békás"
  },
  {
    "lat": 21.73647,
    "lon": 47.96937,
    "shopType": "Patika",
    "branchName": "BENU Nyíregy-Nova Gyógyszertár Tesco"
  },
  {
    "lat": 16.58745,
    "lon": 47.68241,
    "shopType": "Patika",
    "branchName": "BENU Medicina Patika"
  },
  {
    "lat": 18.90486,
    "lon": 47.39914,
    "shopType": "Patika",
    "branchName": "BENU Borostyán Gyógyszertár"
  },
  {
    "lat": 19.07044,
    "lon": 47.53137,
    "shopType": "Patika",
    "branchName": "BENU Gyógyszertár Budapest Honvéd"
  },
  {
    "lat": 18.40167,
    "lon": 47.58348,
    "shopType": "Patika",
    "branchName": "BENU Gyógyszertár Primula"
  },
  {
    "lat": 22.07867,
    "lon": 48.21988,
    "shopType": "Patika",
    "branchName": "BENU Fagyöngy Gyógyszertár"
  },
  {
    "lat": 21.62513,
    "lon": 47.52901,
    "shopType": "Patika",
    "branchName": "BENU Kígyó Gyógyszertár"
  },
  {
    "lat": 16.53345,
    "lon": 46.62276,
    "shopType": "Patika",
    "branchName": "BENU Gyógyszertár Lenti Gyöngyvirág"
  },
  {
    "lat": 19.52215,
    "lon": 48.08134,
    "shopType": "Patika",
    "branchName": "BENU Gyógyszertár Szécsény Király"
  },
  {
    "lat": 19.23854,
    "lon": 47.48375,
    "shopType": "Patika",
    "branchName": "BENU Center Patika"
  },
  {
    "lat": 20.6881,
    "lon": 48.10155,
    "shopType": "Patika",
    "branchName": "BENU Diósgyõri Gyógyszertár"
  },
  {
    "lat": 19.13007,
    "lon": 47.63375,
    "shopType": "Patika",
    "branchName": "BENU Árnika Gyógyszertár"
  },
  {
    "lat": 19.14293,
    "lon": 47.4579,
    "shopType": "Patika",
    "branchName": "BENU Gyógyszertár Budapest Apolló"
  },
  {
    "lat": 17.91129,
    "lon": 47.09308,
    "shopType": "Patika",
    "branchName": "BENU Gyógyszertár Veszprém Bástya"
  },
  {
    "lat": 17.86954,
    "lon": 47.26138,
    "shopType": "Patika",
    "branchName": "BENU Szent Bernát Gyógyszertár"
  },
  {
    "lat": 18.70209,
    "lon": 46.34839,
    "shopType": "Patika",
    "branchName": "BENU Gyógyszertár Szekszárd Aesculap"
  },
  {
    "lat": 16.6208,
    "lon": 47.23161,
    "shopType": "Patika",
    "branchName": "BENU Gyógyszertár Szombathely Fõ tér"
  },
  {
    "lat": 16.55428,
    "lon": 47.38017,
    "shopType": "Patika",
    "branchName": "BENU Gyógyszertár Kõszeg Küttel"
  },
  {
    "lat": 19.13826,
    "lon": 47.50599,
    "shopType": "Patika",
    "branchName": "BENU Gyógyszertár Budapest Örs vezér"
  },
  {
    "lat": 19.61046,
    "lon": 47.23788,
    "shopType": "Patika",
    "branchName": "Gyöngy Pharmacy Irsa Gyógyszertár"
  },
  {
    "lat": 18.45149,
    "lon": 47.75717,
    "shopType": "Patika",
    "branchName": "Gyöngy Pharmacy Szent Miklós Gyógyszertár Fiók Gyógyszertár"
  },
  {
    "lat": 18.93898,
    "lon": 46.96438,
    "shopType": "Patika",
    "branchName": "Gyöngy Pharmacy Kígyó Patika"
  },
  {
    "lat": 19.97845,
    "lon": 47.64392,
    "shopType": "Patika",
    "branchName": "Gyöngy Pharmacy Agora Gyógyszertár"
  },
  {
    "lat": 18.95511,
    "lon": 46.16554,
    "shopType": "Patika",
    "branchName": "Gyöngy Pharmacy Forrás Patika"
  },
  {
    "lat": 20.66835,
    "lon": 46.55852,
    "shopType": "Patika",
    "branchName": "Gyöngy Pharmacy Csillag Patika"
  },
  {
    "lat": 21.44555,
    "lon": 46.77685,
    "shopType": "Patika",
    "branchName": "Gyöngy Pharmacy Farmacie Patika"
  },
  {
    "lat": 18.43905,
    "lon": 46.68013,
    "shopType": "Patika",
    "branchName": "Gyöngy Pharmacy Korall Gyógyszertár"
  },
  {
    "lat": 16.89831,
    "lon": 47.21023,
    "shopType": "Patika",
    "branchName": "Gyöngy Pharmacy Szent György Patika"
  },
  {
    "lat": 18.28307,
    "lon": 46.05085,
    "shopType": "Patika",
    "branchName": "Gyöngy Pharmacy Spartacus Gyógyszertár"
  },
  {
    "lat": 20.3742,
    "lon": 47.9071,
    "shopType": "Patika",
    "branchName": "Gyöngy Pharmacy Balassa Patika"
  },
  {
    "lat": 20.14403,
    "lon": 47.09987,
    "shopType": "Patika",
    "branchName": "Gyöngy Pharmacy Virágos Gyógyszertár"
  },
  {
    "lat": 16.87888,
    "lon": 47.62099,
    "shopType": "Patika",
    "branchName": "Gyöngy Pharmacy Fehérsas Patika"
  },
  {
    "lat": 17.64559,
    "lon": 47.67066,
    "shopType": "Patika",
    "branchName": "Gyöngy Pharmacy Szent Imre Patika"
  },
  {
    "lat": 16.94199,
    "lon": 46.25555,
    "shopType": "Patika",
    "branchName": "Gyöngy Pharmacy Zákányi Patika"
  },
  {
    "lat": 19.52332,
    "lon": 47.41415,
    "shopType": "Patika",
    "branchName": "Gyöngy Pharmacy Levendula Gyógyszertár Úri Fiókgyógyszertár"
  },
  {
    "lat": 18.14079,
    "lon": 47.19985,
    "shopType": "Patika",
    "branchName": "Gyöngy Pharmacy Szent György Gyógyszertár"
  },
  {
    "lat": 18.62938,
    "lon": 46.00018,
    "shopType": "Patika",
    "branchName": "Gyöngy Pharmacy Forrás Gyógyszertár"
  },
  {
    "lat": 21.75391,
    "lon": 47.60001,
    "shopType": "Patika",
    "branchName": "Gyöngy Pharmacy Sámson Patika"
  },
  {
    "lat": 18.94522,
    "lon": 47.16175,
    "shopType": "Patika",
    "branchName": "Gyöngy Pharmacy Galenus Gyógyszertár"
  },
  {
    "lat": 18.96585,
    "lon": 47.64229,
    "shopType": "Patika",
    "branchName": "Gyöngy Pharmacy Margit Gyógyszertár"
  },
  {
    "lat": 19.29679,
    "lon": 47.84476,
    "shopType": "Patika",
    "branchName": "Gyöngy Pharmacy Szent Jakab Fiókgyógyszertár"
  },
  {
    "lat": 19.07292,
    "lon": 47.54951,
    "shopType": "Apple",
    "branchName": "Apple (XMS)"
  },
  {
    "lat": 19.02414,
    "lon": 47.49026,
    "shopType": "Apple",
    "branchName": "Apple (Starking)"
  },
  {
    "lat": 19.05896,
    "lon": 47.5151,
    "shopType": "Apple",
    "branchName": "Apple szerviz (Almárium-Pro)"
  },
  {
    "lat": 19.01516,
    "lon": 47.52256,
    "shopType": "Apple",
    "branchName": "Apple (Starking)"
  },
  {
    "lat": 19.04919,
    "lon": 47.47414,
    "shopType": "Apple",
    "branchName": "Apple (Starking)"
  },
  {
    "lat": 19.0776,
    "lon": 47.50104,
    "shopType": "Apple",
    "branchName": "Apple (Absolute HitSpace)"
  },
  {
    "lat": 19.03752,
    "lon": 47.53102,
    "shopType": "Apple",
    "branchName": "Apple szerviz (StarKing Pro)"
  },
  {
    "lat": 19.05294,
    "lon": 47.51064,
    "shopType": "Apple",
    "branchName": "Apple (Acorner)"
  },
  {
    "lat": 19.06113,
    "lon": 47.50374,
    "shopType": "Apple",
    "branchName": "Apple szerviz (iStyle Pest)"
  },
  {
    "lat": 19.08416,
    "lon": 47.50418,
    "shopType": "Apple",
    "branchName": "Apple (Keraport)"
  },
  {
    "lat": 19.05123,
    "lon": 47.4938,
    "shopType": "Apple",
    "branchName": "Apple (iJoe)"
  },
  {
    "lat": 19.10086,
    "lon": 47.53474,
    "shopType": "Apple",
    "branchName": "Apple (Zaj3 Pro Plasa)"
  },
  {
    "lat": 19.09102,
    "lon": 47.49862,
    "shopType": "Apple",
    "branchName": "Apple (Starking)"
  }
]